[
       {
              "name": "Londres",
              "desc": "capital de Inglaterra y del Reino Unido",
              "url": "http://www.wikidata.org/entity/Q84",
              "coord": {
                     "lat": "51.507222222",
                     "lon": "-0.1275"
              },
              "img": "http://commons.wikimedia.org/wiki/Special:FilePath/London%20Tower%20Bridge%2022.jpg"
       },
       {
              "name": "Basilea",
              "desc": "ciudad de Suiza",
              "url": "http://www.wikidata.org/entity/Q78",
              "coord": {
                     "lat": "47.560555555",
                     "lon": "7.590555555"
              },
              "img": "http://commons.wikimedia.org/wiki/Special:FilePath/Rhine%20Rhein%20Basel%202006%20871.JPG"
       },
       {
              "name": "Fallais",
              "desc": "sección de Braives, Bélgica",
              "url": "http://www.wikidata.org/entity/Q1575050",
              "coord": {
                     "lat": "50.6111",
                     "lon": "5.1711"
              },
              "img": "http://commons.wikimedia.org/wiki/Special:FilePath/FallaisVillage.JPG"
       },
       {
              "name": "Ginebra",
              "desc": "ciudad y comuna de Suiza",
              "url": "http://www.wikidata.org/entity/Q71",
              "coord": {
                     "lat": "46.2",
                     "lon": "6.15"
              },
              "img": "http://commons.wikimedia.org/wiki/Special:FilePath/Geneva%20from%20Mount%20Sal%C3%A8ve.jpg"
       },
       {
              "name": "Colonia",
              "desc": "ciudad de Alemania",
              "url": "http://www.wikidata.org/entity/Q365",
              "coord": {
                     "lat": "50.942222222",
                     "lon": "6.957777777"
              },
              "img": "http://commons.wikimedia.org/wiki/Special:FilePath/Stadtbild%20K%C3%B6ln%20%2850MP%29.jpg"
       },
       {
              "name": "París",
              "desc": "capital de Francia",
              "url": "http://www.wikidata.org/entity/Q90",
              "coord": {
                     "lat": "48.856666666",
                     "lon": "2.352222222"
              },
              "img": "http://commons.wikimedia.org/wiki/Special:FilePath/Paris%20-%20Eiffelturm%20und%20Marsfeld2.jpg"
       },
       {
              "name": "Berna",
              "desc": "capital de Suiza",
              "url": "http://www.wikidata.org/entity/Q70",
              "coord": {
                     "lat": "46.94798",
                     "lon": "7.44743"
              },
              "img": "http://commons.wikimedia.org/wiki/Special:FilePath/Bern%20luftaufnahme.png"
       },
       {
              "name": "Ferrara",
              "desc": "comuna italiana",
              "url": "http://www.wikidata.org/entity/Q13362",
              "coord": {
                     "lat": "44.835297",
                     "lon": "11.619865"
              },
              "img": "http://commons.wikimedia.org/wiki/Special:FilePath/Castello%20esterno.jpg"
       },
       {
              "name": "Noyon",
              "desc": "comuna francesa",
              "url": "http://www.wikidata.org/entity/Q49831",
              "coord": {
                     "lat": "49.581111111",
                     "lon": "2.998888888"
              },
              "img": "http://commons.wikimedia.org/wiki/Special:FilePath/Cath%C3%A9drale%20de%20Noyon.JPG"
       },
       {
              "name": "Zúrich",
              "desc": "ciudad de Suiza",
              "url": "http://www.wikidata.org/entity/Q72",
              "coord": {
                     "lat": "47.374444444",
                     "lon": "8.541111111"
              },
              "img": "http://commons.wikimedia.org/wiki/Special:FilePath/Zuerich%20Fraumuenster%20St%20Peter.jpg"
       },
       {
              "name": "Veigy-Foncenex",
              "desc": "comuna francesa",
              "url": "http://www.wikidata.org/entity/Q774121",
              "coord": {
                     "lat": "46.271944444",
                     "lon": "6.258888888"
              },
              "img": "http://commons.wikimedia.org/wiki/Special:FilePath/OGolfpractice.jpg"
       },
       {
              "name": "Worms",
              "desc": "ciudad de Alemania",
              "url": "http://www.wikidata.org/entity/Q3852",
              "coord": {
                     "lat": "49.6302618",
                     "lon": "8.3620898"
              },
              "img": "http://commons.wikimedia.org/wiki/Special:FilePath/Wormser%20T%C3%BCrme.JPG"
       },
       {
              "name": "Estrasburgo",
              "desc": "ciudad en la región histórica de Alsacia, Francia",
              "url": "http://www.wikidata.org/entity/Q6602",
              "coord": {
                     "lat": "48.573333333",
                     "lon": "7.752222222"
              },
              "img": "http://commons.wikimedia.org/wiki/Special:FilePath/Strasburg.jpg"
       },
       {
              "name": "Biena",
              "desc": "ciudad y comuna suiza del cantón de Berna",
              "url": "http://www.wikidata.org/entity/Q1034",
              "coord": {
                     "lat": "47.137222222",
                     "lon": "7.247222222"
              },
              "img": "http://commons.wikimedia.org/wiki/Special:FilePath/Picswiss%20BE-98-20%20Biel-%20Stadthaus%20und%20Polizei%20%28Burgplatz%29.jpg"
       },
       {
              "name": "Neuchâtel",
              "desc": "ciudad de Suiza",
              "url": "http://www.wikidata.org/entity/Q69345",
              "coord": {
                     "lat": "46.990277777",
                     "lon": "6.930555555"
              },
              "img": "http://commons.wikimedia.org/wiki/Special:FilePath/Vuevilledeneuchatel.jpg"
       }
]